{
	"buildings":[
		{"id":61,"name":"Ingram Building","timetabling_code":"ING","short_name":"Ingr","description":"","lat": 51.29860394446071, "lng": 1.0654699802398681,"address":"","postcode":"CT2 7NH","campus_id":"1"},
		{"id":62,"name":"Keynes College","timetabling_code":"KC","short_name":"K","description":"","lat": 51.295350289124585, "lng": 1.0657596588134765,"address":"","postcode":"CT2 7NP","campus_id":"1"},
		{"id":63,"name":"Jennison Building","timetabling_code":"JENN","short_name":"Jennison","description":"","location":"51.298147, 1.064077","address":"","postcode":"CT2 7NT","campus_id":"1"},
		{"id":64,"name":"Registry","timetabling_code":null,"short_name":"Reg","description":"","lat": 51.29834231884625, "lng": 1.0710811614990234,"address":"","postcode":"CT2 7NZ","campus_id":"1"},
		{"id":65,"name":"Rutherford College","timetabling_code":"RC","short_name":"R","description":"","lat": 51.2975171821413, "lng": 1.0711348056793213,"address":"","postcode":"CT2 7NX","campus_id":"1"},
		{"id":66,"name":"Darwin College","timetabling_code":"DC","short_name":"D","description":"","lat": 51.298832027113164, "lng": 1.072840690612793,"address":"","postcode":"CT2 7NY","campus_id":"1"},
		{"id":67,"name":"Eliot College","timetabling_code":"EC","short_name":"E","description":"","lat": 51.29642368544594, "lng": 1.0691821575164795,"address":"","postcode":"CT2 7NS","campus_id":"1"},
		{"id":68,"name":"Kent Business School","timetabling_code":"KBS","short_name":"KBS","description":"","location":"51.298264, 1.062325","address":"","postcode":"CT2 7PE","campus_id":"1"},
		{"id":69,"name":"Cornwallis South East","timetabling_code":null,"short_name":"CW SE","description":"","lat": 51.29887898516562, "lng": 1.0713386535644531,"address":"","postcode":"CT2 7NF","campus_id":"1"},
		{"id":610,"name":"Stacey Building","timetabling_code":null,"short_name":"Stacey","description":"","lat": 51.29775197864836, "lng": 1.0654592514038086,"address":"","postcode":"CT2 7NJ","campus_id":"1"},
		{"id":611,"name":"Cornwallis George Allen Wing","timetabling_code":"CGA","short_name":"CW GAW","description":"","location":"51.299101, 1.070247","address":"","postcode":"CT2 7NF","campus_id":"1"},
		{"id":612,"name":"Tanglewood","timetabling_code":null,"short_name":"Twd","description":"","lat": 51.29608825179145, "lng": 1.0656309127807617,"address":"","postcode":"CT2 7LX","campus_id":"1"},
		{"id":613,"name":"Estates Department","timetabling_code":null,"short_name":"Est","description":"","lat": 51.29901315076514, "lng": 1.0665321350097656,"address":"","postcode":"CT2 7NN","campus_id":"1"},
		{"id":614,"name":"Cornwallis South","timetabling_code":null,"short_name":"CW S","description":"","lat": 51.2987179859286, "lng": 1.0708236694335938,"address":"","postcode":"CT2 7NF","campus_id":"1"},
		{"id":615,"name":"Rutherford College Extension","timetabling_code":null,"short_name":"RX","description":"","lat": 51.297725144822614, "lng": 1.0706090927124023,"address":"","postcode":"CT2 7NX","campus_id":"1"},
		{"id":616,"name":"Locke Building","timetabling_code":null,"short_name":"Locke Bldg","description":"","lat": 51.29622242554736, "lng": 1.0676050186157227,"address":"","postcode":"CT2 7UG","campus_id":"1"},
		{"id":617,"name":"Olive Cottages","timetabling_code":null,"short_name":"OC","description":"","lat": 51.295712563188786, "lng": 1.0635066032409668,"address":"","postcode":"CT2 7LT","campus_id":"1"},
		{"id":618,"name":"Cornwallis North West","timetabling_code":"CNWS","short_name":"CW NW","description":"","location":"51.298843, 1.069560","address":"","postcode":"CT2 7NF","campus_id":"1"},
		{"id":619,"name":"The Gulbenkian","timetabling_code":"CGU","short_name":"Gulb","description":"","lat": 51.298469777665204, "lng": 1.0694289207458496,"address":"","postcode":"CT2 7NB","campus_id":"1"},
		{"id":620,"name":"Research & Development Centre","timetabling_code":"RDC","short_name":"R&D","description":"","location":"51.297907, 1.063037","address":"","postcode":"CT2 7PD","campus_id":"1"},
		{"id":621,"name":"Marlowe Building","timetabling_code":"MAR","short_name":"Marlowe","description":"","lat": 51.29689328844475, "lng": 1.067948341369629,"address":"","postcode":"CT2 7NR","campus_id":"1"},
		{"id":622,"name":"Students' Union (Mandela Building)","timetabling_code":"Man","short_name":"Mandela Bldg","description":"","lat": 51.29578635940695, "lng": 1.0676908493041992,"address":"","postcode":"CT2 7NW","campus_id":"1"},
		{"id":625,"name":"Students' Centre (The Venue)","timetabling_code":null,"short_name":"The Venue","description":"","lat": 51.295766233177396, "lng": 1.0672187805175781,"address":"","postcode":"CT2 7NW","campus_id":"1"},
		{"id":626,"name":"Careers Advisory Service","timetabling_code":null,"short_name":"Careers","description":"","lat": 51.29494775903379, "lng": 1.0660171508789062,"address":"","postcode":"CT2 7ND","campus_id":"1"},
		{"id":627,"name":"Park Wood Administration","timetabling_code":null,"short_name":"Park Wood","description":"","lat": 51.29756414153878, "lng": 1.0586786270141602,"address":"","postcode":"CT2 7SG","campus_id":"1"},
		{"id":628,"name":"UELT Building","timetabling_code":"UELT","short_name":"UELT","description":"","lat": 51.297825, "lng": 1.067787,"address":"University of Kent\r\nCanterbury\r\nKent","postcode":"CT2 7NQ","campus_id":"1"},
		{"id":629,"name":"Eliot College Extension","timetabling_code":null,"short_name":"EX","description":"","lat": 51.2966115272219, "lng": 1.0687637329101562,"address":"University of Kent\r\nCanterbury\r\nKent","postcode":"CT2 7NS","campus_id":"1"},
		{"id":630,"name":"Telephone Exchange","timetabling_code":null,"short_name":"Tel Exch","description":"","lat": 51.29804044128443, "lng": 1.0675406455993652,"address":"University of Kent\r\nCanterbury\r\nKent","postcode":"CT2 7NQ","campus_id":"1"},
		{"id":632,"name":"Templeman Library","timetabling_code":"LIB","short_name":"Library","description":"","location":"51.297469, 1.069246","address":"University of Kent\r\nCanterbury\r\nKent","postcode":"CT2 7NU","campus_id":"1"},
		{"id":635,"name":"Tyler Court","timetabling_code":null,"short_name":"Tyler Court","description":"","lat": 51.29742997170424, "lng": 1.0725188255310059,"address":"Rutherford College\r\nUniversity of Kent\r\nCanterbury\r\nKent","postcode":"CT2 7UF","campus_id":"1"},
		{"id":637,"name":"Sports Centre","timetabling_code":"SPORTS","short_name":"Sports Cen","description":"","lat": 51.297242133277095, "lng": 1.0645580291748047,"address":"University of Kent\r\nCanterbury\r\nKent","postcode":"CT2 7NL","campus_id":"1"},
		{"id":638,"name":"Design & Print Centre","timetabling_code":null,"short_name":"Design & Print Ctr","description":"","lat": 51.29887898516562, "lng": 1.0671758651733398,"address":"Estates Department\r\nUniversity of Kent\r\nCanterbury\r\nKent","postcode":"CT2 7NN","campus_id":"1"},
		{"id":639,"name":"Boiler House","timetabling_code":null,"short_name":"Boiler House","description":"","lat": 51.29831548536559, "lng": 1.0681629180908203,"address":"University of Kent\r\nCanterbury\r\nKent","postcode":"CT2 7NZ","campus_id":"1"},
		{"id":640,"name":"Banking Hall","timetabling_code":null,"short_name":"Banks","description":"","lat": 51.29773185328051, "lng": 1.0672616958618164,"address":"University of Kent\r\nCanterbury\r\nKent","postcode":"CT2 7NQ","campus_id":"1"},
		{"id":641,"name":"Grimond Building","timetabling_code":"GRIM","short_name":"Grimond","description":"","lat": 51.29784589691491, "lng": 1.0682272911071777,"address":"University of Kent\r\nCanterbury\r\nKent","postcode":"CT2 7NZ","campus_id":"1"},
		{"id":642,"name":"Lumley Building","timetabling_code":"LUMLEY","short_name":"Lum","description":"","lat": 51.2981008169556, "lng": 1.0684633255004883,"address":"University of Kent\r\nCanterbury\r\nKent","postcode":"CT2 7NZ","campus_id":"1"},
		{"id":643,"name":"Oaks Day Nursery","timetabling_code":null,"short_name":"Nursery","description":"","lat": 51.29566560189728, "lng": 1.066220998764038,"address":"Giles Lane\r\nUniversity of Kent\r\nCanterbury\r\nKent","postcode":"CT2 7LX","campus_id":"1"},
		{"id":644,"name":"Medical Centre","timetabling_code":null,"short_name":"Med Centre","description":"","lat": 51.29618217346176, "lng": 1.062154769897461,"address":"Giles Lane\r\nUniversity of Kent\r\nCanterbury\r\nKent","postcode":"CT2 7PB","campus_id":"1"},
		{"id":645,"name":"Maintenance Centre","timetabling_code":null,"short_name":"Maintenance","description":"","lat": 51.29638343353682, "lng": 1.0545587539672852,"address":"Estates Department\r\nUniversity of Kent\r\nCanterbury\r\nKent","postcode":"CT2 7NN","campus_id":"1"},
		{"id":646,"name":"Senate","timetabling_code":null,"short_name":"Senate","description":"","lat": 51.29733605258674, "lng": 1.0698473453521729,"address":"University of Kent\r\nCanterbury\r\nKent","postcode":"CT2 7NZ","campus_id":"1"},
		{"id":648,"name":"Darwin Houses","timetabling_code":null,"short_name":"DH","description":"","lat": 51.29973763822658, "lng": 1.0727119445800781,"address":"University of Kent\r\nCanterbury\r\nKent","postcode":"CT2 7NY","campus_id":"1"},
		{"id":649,"name":"Becket Court","timetabling_code":null,"short_name":"BC","description":"","lat": 51.29555155284651, "lng": 1.0684418678283691,"address":"Eliot College\r\nUniversity of Kent\r\nCanterbury\r\nKent","postcode":"CT2 7NS","campus_id":"1"},
		{"id":650,"name":"Beverley Farmhouse","timetabling_code":"BF","short_name":"Beverley","description":"","lat": 51.29289480067264, "lng": 1.0656952857971191,"address":"University of Kent\r\nCanterbury\r\nKent","postcode":"CT2 7LZ","campus_id":"1"},
		{"id":652,"name":"Woodlands","timetabling_code":null,"short_name":"Woodlands","description":"","lat": 51.29563876685201, "lng": 1.0625195503234863,"address":"Giles Lane\r\nUniversity of Kent\r\nCanterbury\r\nKent","postcode":"CT2 7LR","campus_id":"1"},
		{"id":653,"name":"Hothe Court","timetabling_code":null,"short_name":"HotheCt","description":"","lat": 51.296309638278395, "lng": 1.0546016693115234,"address":"Park Wood\r\nUniversity of Kent\r\nCanterbury\r\nKent","postcode":"CT2 9DU","campus_id":"1"},
		{"id":654,"name":"Grounds Maintenance","timetabling_code":null,"short_name":"Grounds","description":"","lat": 51.296396850843756, "lng": 1.0545802116394043,"address":"Estates Department\r\nUniversity of Kent\r\nCanterbury\r\nKent","postcode":"CT2 7NN","campus_id":"1"},
		{"id":655,"name":"Sports Pavilion","timetabling_code":"Pavillion","short_name":"Sports Pav","description":"","lat": 51.29976447087593, "lng": 1.0576915740966797,"address":"University of Kent\r\nCanterbury\r\nKent","postcode":"CT2 7SR","campus_id":"1"},
		{"id":663,"name":"Cornwallis North East","timetabling_code":"CNE","short_name":"CW NE","description":"","location":"51.299246, 1.070785","address":"University of Kent\r\nCanterbury\r\nKent","postcode":"CT2 7NF","campus_id":"1"},
		{"id":664,"name":"Cornwallis Mathematical Institute","timetabling_code":null,"short_name":"IMS","description":"","lat": 51.29882531881603, "lng": 1.0707378387451172,"address":"University of Kent\r\nCanterbury\r\nKent","postcode":"CT2 7NF","campus_id":"1"},
		{"id":665,"name":"Cornwallis South West","timetabling_code":null,"short_name":"CW SW","description":"","lat": 51.29855698612689, "lng": 1.070265769958496,"address":"University of Kent\r\nCanterbury\r\nKent","postcode":"CT2 7NF","campus_id":"1"},
		{"id":666,"name":"Cornwallis West","timetabling_code":null,"short_name":"CW W","description":"","lat": 51.29874481917398, "lng": 1.069793701171875,"address":"University of Kent\r\nCanterbury\r\nKent","postcode":"CT2 7NF","campus_id":"1"},
		{"id":668,"name":"Rothford","timetabling_code":null,"short_name":"Rothford","description":"","lat": 51.29531003627432, "lng": 1.0628414154052734,"address":"Giles Lane\r\nCanterbury\r\nKent","postcode":"CT2 7LR","campus_id":"1"},
		{"id":670,"name":"Bossenden Court","timetabling_code":null,"short_name":"BossCt","description":"","lat": 51.298020316043065, "lng": 1.0543441772460938,"address":"Park Wood\r\nThe University of Kent\r\nCanterbury\r\nKent","postcode":"CT2 7WS","campus_id":"1"},
		{"id":671,"name":"Stock Court","timetabling_code":null,"short_name":"StockCt","description":"","lat": 51.297778812458404, "lng": 1.054387092590332,"address":"Park Wood\r\nThe University of Kent\r\nCanterbury\r\nKent","postcode":"CT2 7WT","campus_id":"1"},
		{"id":672,"name":"Nickel Court","timetabling_code":null,"short_name":"NickCt","description":"","lat": 51.298020316043065, "lng": 1.0546445846557617,"address":"Park Wood\r\nThe University\r\nCanterbury\r\nKent","postcode":"CT2 7WU","campus_id":"1"},
		{"id":673,"name":"Kemsdale Court","timetabling_code":null,"short_name":"KemsCt","description":"","lat": 51.29783248003147, "lng": 1.0547304153442383,"address":"Park Wood\r\nThe University of Kent\r\nCanterbury\r\nKent\r\n","postcode":"CT2 7WW","campus_id":"1"},
		{"id":674,"name":"Kent Enterprise Hub","timetabling_code":null,"short_name":"Hub","description":"","lat": 51.29756414153878, "lng": 1.065201759338379,"address":"University of Kent\r\nCanterbury\r\nKent","postcode":"CT2 7NJ","campus_id":"1"},
		{"id":676,"name":"Purchas Court","timetabling_code":null,"short_name":"PurchCt","description":"","lat": 51.297725144822614, "lng": 1.0561037063598633,"address":"Park Wood\r\nThe University of Kent\r\nCanterbury\r\nKent\r\n","postcode":"CT2 7SY","campus_id":"1"},
		{"id":677,"name":"Ellenden Court","timetabling_code":null,"short_name":"EllenCt","description":"","lat": 51.29673228224346, "lng": 1.0555028915405273,"address":"Park Wood\r\nThe University of Kent\r\nCanterbury\r\nKent\r\n","postcode":"CT2 7SH","campus_id":"1"},
		{"id":678,"name":"Thornden Court","timetabling_code":null,"short_name":"ThorCt","description":"","lat": 51.29694695705305, "lng": 1.056962013244629,"address":"Park Wood\r\nThe University of Kent\r\nCanterbury\r\nKent\r\n","postcode":"CT2 7SS","campus_id":"1"},
		{"id":679,"name":"Lypeatt Court","timetabling_code":null,"short_name":"LypCt","description":"","lat": 51.29807398333377, "lng": 1.0587644577026367,"address":"Park Wood\r\nThe University of Kent\r\nCanterbury\r\nKent\r\n","postcode":"CT2 7SR","campus_id":"1"},
		{"id":680,"name":"Bishopden Court","timetabling_code":null,"short_name":"BishCt","description":"","lat": 51.29678595103997, "lng": 1.0585498809814453,"address":"Park Wood\r\nUniversity of Kent\r\nCanterbury\r\nKent\r\n","postcode":"CT2 7SR","campus_id":"1"},
		{"id":681,"name":"Farthings Court","timetabling_code":null,"short_name":"FarCt","description":"","lat": 51.296571275477476, "lng": 1.0594940185546875,"address":"Park Wood\r\nThe University of Kent\r\nCanterbury\r\nKent\r\n","postcode":"CT2 7UZ","campus_id":"1"},
		{"id":682,"name":"Marley Court","timetabling_code":null,"short_name":"MarCt","description":"","lat": 51.29627609493991, "lng": 1.0588502883911133,"address":"Park Wood\r\nThe University of Kent\r\nCanterbury\r\nKent\r\n","postcode":"CT2 7UU","campus_id":"1"},
		{"id":683,"name":"Woody's Bar","timetabling_code":null,"short_name":"Woodys","description":"","lat": 51.297725144822614, "lng": 1.0590434074401855,"address":"University of Kent\r\nCanterbury\r\nKent","postcode":"CT2 7SG","campus_id":"1"},
		{"id":684,"name":"Park Wood Shop","timetabling_code":null,"short_name":"PWShop","description":"","lat": 51.29751047365201, "lng": 1.0588932037353516,"address":"University of Kent\r\nCanterbury\r\nKent","postcode":"CT2 7SG","campus_id":"1"},
		{"id":685,"name":"Campus Watch","timetabling_code":null,"short_name":"CWatch","description":"","lat": 51.297725144822614, "lng": 1.0673260688781738,"address":"University of Kent\r\nCanterbury\r\nKent","postcode":"CT2 7NQ","campus_id":"1"},
		{"id":686,"name":"Grimshill Court","timetabling_code":null,"short_name":"GrimCt","description":"","lat": 51.296168756092044, "lng": 1.0561895370483398,"address":"Park Wood\r\nThe University of Kent\r\nCanterbury\r\nKent\r\n","postcode":"CT2 7ST","campus_id":"1"},
		{"id":687,"name":"Denstead Court","timetabling_code":null,"short_name":"DensCt","description":"","lat": 51.295390541939554, "lng": 1.0553312301635742,"address":"Park Wood\r\nThe University of Kent\r\nCanterbury\r\nKent\r\n","postcode":"CT2 7SJ","campus_id":"1"},
		{"id":688,"name":"Homestall Court","timetabling_code":null,"short_name":"HomeCt","description":"","lat": 51.29568572817097, "lng": 1.0568761825561523,"address":"Park Wood\r\nThe University of Kent\r\nCanterbury\r\nKent\r\n","postcode":"CT2 7SU","campus_id":"1"},
		{"id":689,"name":"Clowes Court","timetabling_code":null,"short_name":"ClowCt","description":"","lat": 51.296168756092044, "lng": 1.0578632354736328,"address":"Park Wood\r\nThe University of Kent\r\nCanterbury\r\nKent\r\n","postcode":"CT2 7SX","campus_id":"1"},
		{"id":690,"name":"Willows Court","timetabling_code":null,"short_name":"WillCt","description":"","lat": 51.295632058088245, "lng": 1.0587644577026367,"address":"Park Wood\r\nThe University of Kent\r\nCanterbury\r\nKent\r\n","postcode":"CT2 7UT","campus_id":"1"},
		{"id":691,"name":"Tudor Court","timetabling_code":null,"short_name":"TudorCt","description":"","lat": 51.296061416993226, "lng": 1.0591936111450195,"address":"Park Wood\r\nThe University of Kent\r\nCanterbury\r\nKent\r\n","postcode":"CT2 7UX","campus_id":"1"},
		{"id":692,"name":"Brotherhood Close","timetabling_code":null,"short_name":"Bhood","description":"","lat": 51.29568572817097, "lng": 1.0635817050933838,"address":"Giles Lane\r\nUniversity of Kent\r\nCanterbury\r\nKent","postcode":"CT2 7LT","campus_id":"1"},
		{"id":693,"name":"University Pharmacy","timetabling_code":null,"short_name":"Pharmacy","description":"","lat": 51.29602116476645, "lng": 1.0623371601104736,"address":"Giles Lane\r\nUniversity of Kent\r\nCanterbury\r\nKent","postcode":"CT2 7PB","campus_id":"1"},
		{"id":696,"name":"Woolf College","timetabling_code":"WC","short_name":"W","description":"","lat": 51.300083, "lng": 1.070840,"address":"The Pavilion\r\nGiles Lane\r\nUniversity of Kent\r\nCanterbury\r\nKent","postcode":"CT2 7BQ","campus_id":"1"},
		{"id":698,"name":"Jarman Building","timetabling_code":"JAR","short_name":"Jarman","description":"","lat": 51.29624926025147, "lng": 1.0670685768127441,"address":"University of Kent\r\nCanterbury\r\nKent","postcode":"CT2 7UG","campus_id":"1"},
		{"id":699,"name":"Canterbury Innovation Centre","timetabling_code":null,"short_name":"Innovation","description":"","lat": 51.29206285676884, "lng": 1.0646438598632812,"address":"","postcode":"CT2 8HJ","campus_id":"1"},
		{"id":6196,"name":"Biology","timetabling_code":"BIOL","short_name":null,"description":null,"lat": 51.297832, "lng": 1.065491,"address":null,"postcode":null,"campus_id":"1"},
		{"id":6197,"name":"Computing","timetabling_code":"COMP","short_name":null,"description":null,"lat": 51.29861065279019, "lng": 1.070319414138794,"address":null,"postcode":null,"campus_id":"1"},
		{"id":6198,"name":"Drama Facilities","timetabling_code":"DB","short_name":null,"description":null,"lat": 51.298006899210556, "lng": 1.068420410156253,"address":null,"postcode":null,"campus_id":"1"},
		{"id":6199,"name":"Giles Lane","timetabling_code":"GLS","short_name":null,"description":null,"location":"51.297206, 1.065775","address":null,"postcode":null,"campus_id":"1"},
		{"id":6200,"name":"Kent Enterprise Hub","timetabling_code":"ENT","short_name":null,"description":null,"location":"51.297672, 1.065113","address":null,"postcode":null,"campus_id":"1"},
		{"id":6201,"name":"Maths Institute","timetabling_code":"MI","short_name":null,"description":null,"location":"51.299069, 1.070512","address":null,"postcode":null,"campus_id":"1"}
	]
}